[
  {
    "name": "アメリカ",
    "type": "country",
    "lat": 38.897957,
    "lng": -77.03656
  },
  {
    "name": "ニューヨーク",
    "type": "city",
    "lat": 40.712776,
    "lng": -74.005974
  },
  {
    "name": "ロサンゼルス",
    "type": "city",
    "lat": 34.052235,
    "lng": -118.243683
  },
  {
    "name": "シカゴ",
    "type": "city",
    "lat": 41.878113,
    "lng": -87.629799
  },
  {
    "name": "ワシントン",
    "type": "city",
    "lat": 38.89511,
    "lng": -77.03637
  },
  {
    "name": "イギリス",
    "type": "country",
    "lat": 51.507351,
    "lng": -0.127758
  },
  {
    "name": "ロンドン",
    "type": "city",
    "lat": 51.507351,
    "lng": -0.127758
  },
  {
    "name": "マンチェスター",
    "type": "city",
    "lat": 53.480759,
    "lng": -2.242631
  },
  {
    "name": "バーミンガム",
    "type": "city",
    "lat": 52.486244,
    "lng": -1.890401
  },
  {
    "name": "フランス",
    "type": "country",
    "lat": 48.856613,
    "lng": 2.352222
  },
  {
    "name": "パリ",
    "type": "city",
    "lat": 48.856613,
    "lng": 2.352222
  },
  {
    "name": "マルセイユ",
    "type": "city",
    "lat": 43.296482,
    "lng": 5.36978
  },
  {
    "name": "リヨン",
    "type": "city",
    "lat": 45.764043,
    "lng": 4.835659
  },
  {
    "name": "ドイツ",
    "type": "country",
    "lat": 52.520008,
    "lng": 13.404954
  },
  {
    "name": "ベルリン",
    "type": "city",
    "lat": 52.520008,
    "lng": 13.404954
  },
  {
    "name": "ミュンヘン",
    "type": "city",
    "lat": 48.135125,
    "lng": 11.581981
  },
  {
    "name": "フランクフルト",
    "type": "city",
    "lat": 50.110924,
    "lng": 8.682127
  },
  {
    "name": "イタリア",
    "type": "country",
    "lat": 41.902782,
    "lng": 12.496366
  },
  {
    "name": "ローマ",
    "type": "city",
    "lat": 41.902782,
    "lng": 12.496366
  },
  {
    "name": "ミラノ",
    "type": "city",
    "lat": 45.464203,
    "lng": 9.189982
  },
  {
    "name": "ナポリ",
    "type": "city",
    "lat": 40.851798,
    "lng": 14.26812
  },
  {
    "name": "スペイン",
    "type": "country",
    "lat": 40.416775,
    "lng": -3.70379
  },
  {
    "name": "マドリード",
    "type": "city",
    "lat": 40.416775,
    "lng": -3.70379
  },
  {
    "name": "バルセロナ",
    "type": "city",
    "lat": 41.385063,
    "lng": 2.173404
  },
  {
    "name": "セビリア",
    "type": "city",
    "lat": 37.389092,
    "lng": -5.984459
  },
  {
    "name": "カナダ",
    "type": "country",
    "lat": 45.42153,
    "lng": -75.697193
  },
  {
    "name": "トロント",
    "type": "city",
    "lat": 43.65107,
    "lng": -79.347015
  },
  {
    "name": "バンクーバー",
    "type": "city",
    "lat": 49.282729,
    "lng": -123.120738
  },
  {
    "name": "モントリオール",
    "type": "city",
    "lat": 45.501689,
    "lng": -73.567256
  },
  {
    "name": "ロシア",
    "type": "country",
    "lat": 55.755825,
    "lng": 37.617298
  },
  {
    "name": "モスクワ",
    "type": "city",
    "lat": 55.755825,
    "lng": 37.617298
  },
  {
    "name": "サンクトペテルブルク",
    "type": "city",
    "lat": 59.93428,
    "lng": 30.335099
  },
  {
    "name": "中国",
    "type": "country",
    "lat": 39.904202,
    "lng": 116.407394
  },
  {
    "name": "北京",
    "type": "city",
    "lat": 39.904202,
    "lng": 116.407394
  },
  {
    "name": "上海",
    "type": "city",
    "lat": 31.230391,
    "lng": 121.473701
  },
  {
    "name": "広州",
    "type": "city",
    "lat": 23.12911,
    "lng": 113.264385
  },
  {
    "name": "深圳",
    "type": "city",
    "lat": 22.543099,
    "lng": 114.057868
  },
  {
    "name": "インド",
    "type": "country",
    "lat": 28.613939,
    "lng": 77.209023
  },
  {
    "name": "ムンバイ",
    "type": "city",
    "lat": 19.07609,
    "lng": 72.877426
  },
  {
    "name": "デリー",
    "type": "city",
    "lat": 28.70406,
    "lng": 77.102493
  },
  {
    "name": "バンガロール",
    "type": "city",
    "lat": 12.971599,
    "lng": 77.594566
  },
  {
    "name": "ブラジル",
    "type": "country",
    "lat": -15.793889,
    "lng": -47.882778
  },
  {
    "name": "サンパウロ",
    "type": "city",
    "lat": -23.55052,
    "lng": -46.633308
  },
  {
    "name": "リオデジャネイロ",
    "type": "city",
    "lat": -22.906847,
    "lng": -43.172897
  },
  {
    "name": "ブラジリア",
    "type": "city",
    "lat": -15.793889,
    "lng": -47.882778
  },
  {
    "name": "メキシコ",
    "type": "country",
    "lat": 19.432608,
    "lng": -99.133209
  },
  {
    "name": "メキシコシティ",
    "type": "city",
    "lat": 19.432608,
    "lng": -99.133209
  },
  {
    "name": "グアダラハラ",
    "type": "city",
    "lat": 20.659698,
    "lng": -103.349609
  },
  {
    "name": "オーストラリア",
    "type": "country",
    "lat": -35.280937,
    "lng": 149.130009
  },
  {
    "name": "シドニー",
    "type": "city",
    "lat": -33.86882,
    "lng": 151.209296
  },
  {
    "name": "メルボルン",
    "type": "city",
    "lat": -37.813629,
    "lng": 144.963058
  },
  {
    "name": "ブリスベン",
    "type": "city",
    "lat": -27.469771,
    "lng": 153.025124
  },
  {
    "name": "韓国",
    "type": "country",
    "lat": 37.566535,
    "lng": 126.977969
  },
  {
    "name": "ソウル",
    "type": "city",
    "lat": 37.566535,
    "lng": 126.977969
  },
  {
    "name": "釜山",
    "type": "city",
    "lat": 35.179554,
    "lng": 129.075642
  },
  {
    "name": "北朝鮮",
    "type": "country",
    "lat": 39.039219,
    "lng": 125.762524
  },
  {
    "name": "平壌",
    "type": "city",
    "lat": 39.039219,
    "lng": 125.762524
  },
  {
    "name": "日本",
    "type": "country",
    "lat": 35.689487,
    "lng": 139.691711
  },
  {
    "name": "東京",
    "type": "city",
    "lat": 35.689487,
    "lng": 139.691711
  },
  {
    "name": "大阪",
    "type": "city",
    "lat": 34.693737,
    "lng": 135.502167
  },
  {
    "name": "京都",
    "type": "city",
    "lat": 35.011636,
    "lng": 135.768029
  },
  {
    "name": "福岡",
    "type": "city",
    "lat": 33.590355,
    "lng": 130.401716
  },
  {
    "name": "札幌",
    "type": "city",
    "lat": 43.062092,
    "lng": 141.354376
  },
  {
    "name": "トルコ",
    "type": "country",
    "lat": 39.933364,
    "lng": 32.859742
  },
  {
    "name": "イスタンブール",
    "type": "city",
    "lat": 41.008238,
    "lng": 28.978359
  },
  {
    "name": "アンカラ",
    "type": "city",
    "lat": 39.933364,
    "lng": 32.859742
  },
  {
    "name": "ウクライナ",
    "type": "country",
    "lat": 50.4501,
    "lng": 30.5234
  },
  {
    "name": "キーウ",
    "type": "city",
    "lat": 50.4501,
    "lng": 30.5234
  },
  {
    "name": "ハルキウ",
    "type": "city",
    "lat": 49.9935,
    "lng": 36.2304
  },
  {
    "name": "リヴィウ",
    "type": "city",
    "lat": 49.8397,
    "lng": 24.0297
  },
  {
    "name": "南アフリカ",
    "type": "country",
    "lat": -25.747868,
    "lng": 28.229271
  },
  {
    "name": "ヨハネスブルグ",
    "type": "city",
    "lat": -26.204103,
    "lng": 28.047305
  },
  {
    "name": "ケープタウン",
    "type": "city",
    "lat": -33.924869,
    "lng": 18.424055
  },
  {
    "name": "サウジアラビア",
    "type": "country",
    "lat": 24.713552,
    "lng": 46.675297
  },
  {
    "name": "リヤド",
    "type": "city",
    "lat": 24.713552,
    "lng": 46.675297
  },
  {
    "name": "ジェッダ",
    "type": "city",
    "lat": 21.485811,
    "lng": 39.192505
  },
  {
    "name": "イラン",
    "type": "country",
    "lat": 35.689198,
    "lng": 51.388974
  },
  {
    "name": "テヘラン",
    "type": "city",
    "lat": 35.689198,
    "lng": 51.388974
  },
  {
    "name": "イスラエル",
    "type": "country",
    "lat": 31.768319,
    "lng": 35.21371
  },
  {
    "name": "エルサレム",
    "type": "city",
    "lat": 31.768319,
    "lng": 35.21371
  },
  {
    "name": "テルアビブ",
    "type": "city",
    "lat": 32.0853,
    "lng": 34.781769
  },
  {
    "name": "エジプト",
    "type": "country",
    "lat": 30.04442,
    "lng": 31.235712
  },
  {
    "name": "カイロ",
    "type": "city",
    "lat": 30.04442,
    "lng": 31.235712
  },
  {
    "name": "アレクサンドリア",
    "type": "city",
    "lat": 31.200092,
    "lng": 29.918739
  },
  {
    "name": "タイ",
    "type": "country",
    "lat": 13.756331,
    "lng": 100.501765
  },
  {
    "name": "バンコク",
    "type": "city",
    "lat": 13.756331,
    "lng": 100.501765
  },
  {
    "name": "チェンマイ",
    "type": "city",
    "lat": 18.788344,
    "lng": 98.985301
  },
  {
    "name": "ベトナム",
    "type": "country",
    "lat": 21.028511,
    "lng": 105.804817
  },
  {
    "name": "ハノイ",
    "type": "city",
    "lat": 21.028511,
    "lng": 105.804817
  },
  {
    "name": "ホーチミン",
    "type": "city",
    "lat": 10.762622,
    "lng": 106.660172
  },
  {
    "name": "マレーシア",
    "type": "country",
    "lat": 3.139003,
    "lng": 101.686855
  },
  {
    "name": "クアラルンプール",
    "type": "city",
    "lat": 3.139003,
    "lng": 101.686855
  },
  {
    "name": "シンガポール",
    "type": "country",
    "lat": 1.352083,
    "lng": 103.819836
  },
  {
    "name": "シンガポール",
    "type": "city",
    "lat": 1.352083,
    "lng": 103.819836
  },
  {
    "name": "インドネシア",
    "type": "country",
    "lat": -6.208763,
    "lng": 106.845599
  },
  {
    "name": "ジャカルタ",
    "type": "city",
    "lat": -6.208763,
    "lng": 106.845599
  },
  {
    "name": "スラバヤ",
    "type": "city",
    "lat": -7.257472,
    "lng": 112.752088
  },
  {
    "name": "フィリピン",
    "type": "country",
    "lat": 14.599512,
    "lng": 120.984222
  },
  {
    "name": "マニラ",
    "type": "city",
    "lat": 14.599512,
    "lng": 120.984222
  },
  {
    "name": "セブ",
    "type": "city",
    "lat": 10.3157,
    "lng": 123.8854
  },
  {
    "name": "台湾",
    "type": "country",
    "lat": 25.033964,
    "lng": 121.564468
  },
  {
    "name": "台北",
    "type": "city",
    "lat": 25.033964,
    "lng": 121.564468
  },
  {
    "name": "高雄",
    "type": "city",
    "lat": 22.627278,
    "lng": 120.301435
  },
  {
    "name": "パキスタン",
    "type": "country",
    "lat": 33.68442,
    "lng": 73.047885
  },
  {
    "name": "イスラマバード",
    "type": "city",
    "lat": 33.68442,
    "lng": 73.047885
  },
  {
    "name": "カラチ",
    "type": "city",
    "lat": 24.860735,
    "lng": 67.001137
  },
  {
    "name": "アフガニスタン",
    "type": "country",
    "lat": 34.555349,
    "lng": 69.207486
  },
  {
    "name": "カブール",
    "type": "city",
    "lat": 34.555349,
    "lng": 69.207486
  },
  {
    "name": "イラク",
    "type": "country",
    "lat": 33.315242,
    "lng": 44.366066
  },
  {
    "name": "バグダッド",
    "type": "city",
    "lat": 33.315242,
    "lng": 44.366066
  },
  {
    "name": "モスル",
    "type": "city",
    "lat": 36.345642,
    "lng": 43.157009
  },
  {
    "name": "シリア",
    "type": "country",
    "lat": 33.513807,
    "lng": 36.276528
  },
  {
    "name": "ダマスカス",
    "type": "city",
    "lat": 33.513807,
    "lng": 36.276528
  },
  {
    "name": "アレッポ",
    "type": "city",
    "lat": 36.202104,
    "lng": 37.13426
  },
  {
    "name": "レバノン",
    "type": "country",
    "lat": 33.893791,
    "lng": 35.501777
  },
  {
    "name": "ベイルート",
    "type": "city",
    "lat": 33.893791,
    "lng": 35.501777
  },
  {
    "name": "ギリシャ",
    "type": "country",
    "lat": 37.98381,
    "lng": 23.727539
  },
  {
    "name": "アテネ",
    "type": "city",
    "lat": 37.98381,
    "lng": 23.727539
  },
  {
    "name": "スウェーデン",
    "type": "country",
    "lat": 59.329323,
    "lng": 18.068581
  },
  {
    "name": "ストックホルム",
    "type": "city",
    "lat": 59.329323,
    "lng": 18.068581
  },
  {
    "name": "ノルウェー",
    "type": "country",
    "lat": 59.913869,
    "lng": 10.752245
  },
  {
    "name": "オスロ",
    "type": "city",
    "lat": 59.913869,
    "lng": 10.752245
  },
  {
    "name": "フィンランド",
    "type": "country",
    "lat": 60.169856,
    "lng": 24.938379
  },
  {
    "name": "ヘルシンキ",
    "type": "city",
    "lat": 60.169856,
    "lng": 24.938379
  },
  {
    "name": "ポーランド",
    "type": "country",
    "lat": 52.229676,
    "lng": 21.012229
  },
  {
    "name": "ワルシャワ",
    "type": "city",
    "lat": 52.229676,
    "lng": 21.012229
  },
  {
    "name": "オランダ",
    "type": "country",
    "lat": 52.370216,
    "lng": 4.895168
  },
  {
    "name": "アムステルダム",
    "type": "city",
    "lat": 52.370216,
    "lng": 4.895168
  },
  {
    "name": "ロッテルダム",
    "type": "city",
    "lat": 51.9225,
    "lng": 4.47917
  },
  {
    "name": "ベルギー",
    "type": "country",
    "lat": 50.85034,
    "lng": 4.35171
  },
  {
    "name": "ブリュッセル",
    "type": "city",
    "lat": 50.85034,
    "lng": 4.35171
  },
  {
    "name": "スイス",
    "type": "country",
    "lat": 47.376887,
    "lng": 8.541694
  },
  {
    "name": "チューリッヒ",
    "type": "city",
    "lat": 47.376887,
    "lng": 8.541694
  },
  {
    "name": "ジュネーブ",
    "type": "city",
    "lat": 46.204391,
    "lng": 6.143158
  },
  {
    "name": "チェコ",
    "type": "country",
    "lat": 50.075538,
    "lng": 14.4378
  },
  {
    "name": "プラハ",
    "type": "city",
    "lat": 50.075538,
    "lng": 14.4378
  },
  {
    "name": "ハンガリー",
    "type": "country",
    "lat": 47.497912,
    "lng": 19.040235
  },
  {
    "name": "ブダペスト",
    "type": "city",
    "lat": 47.497912,
    "lng": 19.040235
  },
  {
    "name": "オーストリア",
    "type": "country",
    "lat": 48.208174,
    "lng": 16.373819
  },
  {
    "name": "ウィーン",
    "type": "city",
    "lat": 48.208174,
    "lng": 16.373819
  },
  {
    "name": "アルゼンチン",
    "type": "country",
    "lat": -34.603684,
    "lng": -58.381559
  },
  {
    "name": "ブエノスアイレス",
    "type": "city",
    "lat": -34.603684,
    "lng": -58.381559
  },
  {
    "name": "チリ",
    "type": "country",
    "lat": -33.44889,
    "lng": -70.669265
  },
  {
    "name": "サンティアゴ",
    "type": "city",
    "lat": -33.44889,
    "lng": -70.669265
  },
  {
    "name": "コロンビア",
    "type": "country",
    "lat": 4.711,
    "lng": -74.0721
  },
  {
    "name": "ボゴタ",
    "type": "city",
    "lat": 4.711,
    "lng": -74.0721
  },
  {
    "name": "ペルー",
    "type": "country",
    "lat": -12.046374,
    "lng": -77.042793
  },
  {
    "name": "リマ",
    "type": "city",
    "lat": -12.046374,
    "lng": -77.042793
  }
]